City_ID,City,Lat,Lng,Max Temp,Humidity,Cloudiness,Wind Speed,Country,Date
0,grytviken,-54.2811,-36.5092,-0.91,78,93,3.04,GS,1745433959
1,papao,-17.75,-149.55,27.82,76,57,9.33,PF,1745433960
2,bredasdorp,-34.5322,20.0403,15.23,86,0,2.89,ZA,1745433961
3,changji,44.0167,87.3167,16.44,36,0,3.0,CN,1745433962
4,mahibadhoo,3.7833,72.9667,29.36,71,97,4.68,MV,1745433964
5,ixtapa,20.7,-105.2,26.57,50,0,4.63,MX,1745433965
6,ribeira grande,38.5167,-28.7,18.22,77,40,6.69,PT,1745433966
7,lebu,-37.6167,-73.65,16.47,84,70,3.62,CL,1745433967
8,aleksandrovskoye,44.7142,43.0008,14.6,89,100,1.73,RU,1745433968
9,puerto natales,-51.7236,-72.4875,11.25,50,75,5.14,CL,1745433969
10,west island,-12.1568,96.8225,26.99,94,100,2.57,CC,1745433970
11,bakanas,44.8081,76.2772,15.05,61,99,4.41,KZ,1745433972
12,port-aux-francais,-49.35,70.2167,6.72,85,98,11.93,TF,1745433973
13,buzuluk,52.7807,52.2635,15.14,64,20,2.42,RU,1745433974
14,mandal,25.45,74.5667,28.78,7,0,4.34,IN,1745433975
15,thompson,55.7435,-97.8558,6.09,36,40,1.54,CA,1745433966
16,shelbyville,35.4834,-86.4603,26.68,64,40,4.12,US,1745433813
17,garissa,-0.4536,39.6401,24.96,87,100,7.7,KE,1745433979
18,saint-pierre,-21.3393,55.4781,25.82,73,20,2.06,RE,1745433980
19,college,64.8569,-147.8028,4.49,63,100,5.14,US,1745433981
20,adamstown,-25.066,-130.1015,24.48,79,100,4.33,PN,1745433982
21,edinburgh of the seven seas,-37.0676,-12.3116,18.7,88,79,9.7,SH,1745433983
22,luang prabang,19.8856,102.1347,24.77,73,26,0.64,LA,1745433984
23,vengurla,15.8667,73.6333,27.64,76,27,1.57,IN,1745433986
24,adrar,20.5022,-10.0711,34.88,12,95,5.92,MR,1745433987
25,margaret river,-33.95,115.0667,15.16,76,100,10.12,AU,1745433988
26,dudinka,69.4058,86.1778,-14.85,95,100,7.34,RU,1745433977
27,hawaiian paradise park,19.5933,-154.9731,27.63,70,75,3.6,US,1745433990
28,utrik,11.2278,169.8474,26.86,79,58,6.87,MH,1745433991
29,ushuaia,-54.8,-68.3,7.81,57,0,1.54,AR,1745433781
30,le port,-20.9373,55.2919,25.98,78,41,0.97,RE,1745433994
31,qaqortoq,60.7167,-46.0333,5.78,65,100,3.93,GL,1745433995
32,pisco,-13.7,-76.2167,22.23,78,13,4.63,PE,1745433996
33,alofi,-19.0595,-169.9187,23.94,83,20,2.57,NU,1745433997
34,puerto ayora,-0.7393,-90.3518,26.97,94,88,1.79,EC,1745433998
35,neiafu,-18.65,-173.9833,21.38,100,75,0.0,TO,1745434000
36,zhezqazghan,47.7833,67.7667,17.72,37,100,2.14,KZ,1745434001
37,waitangi,-43.9535,-176.5597,12.0,59,20,8.49,NZ,1745434002
38,clemencia,10.5665,-75.325,30.65,72,51,7.35,CO,1745434003
39,fort bragg,35.139,-79.006,26.49,73,79,2.7,US,1745434004
40,anadyr,64.75,177.4833,-5.72,73,100,7.0,RU,1745434006
41,thurso,58.5927,-3.5259,9.14,87,13,3.96,GB,1745434007
42,punta arenas,-53.15,-70.9167,7.06,70,0,4.63,CL,1745434008
43,thunder bay,48.4001,-89.3168,5.95,87,100,5.66,CA,1745434009
44,isafjordur,66.0755,-23.124,7.02,53,0,2.57,IS,1745434010
45,bella union,-30.2752,-57.6007,29.16,34,3,1.72,UY,1745434011
46,rokytne,51.2796,27.214,14.36,83,100,2.79,UA,1745434012
47,papatowai,-46.5619,169.4708,4.84,84,36,3.04,NZ,1745434014
48,bol'sherech'ye,56.0925,74.6272,0.36,67,10,3.5,RU,1745434015
49,luganville,-15.5333,167.1667,25.58,90,100,1.67,VU,1745433727
50,happy valley-goose bay,53.3168,-60.3315,8.17,36,75,5.14,CA,1745434017
51,ta`u,-14.2336,-169.5144,28.05,71,57,7.58,AS,1745434019
52,bereznik,62.8551,42.7072,1.82,98,100,0.25,RU,1745434022
53,tiksi,71.6872,128.8694,-7.49,95,67,2.73,RU,1745434023
54,ilulissat,69.2167,-51.1,-2.99,86,40,2.06,GL,1745434024
55,constantia,44.1833,28.65,11.5,81,0,2.8,RO,1745433846
56,saipan,15.1355,145.701,27.39,78,20,4.12,MP,1745434026
57,ulanhot,46.0833,122.0833,3.07,64,27,6.64,CN,1745434027
58,waddan,29.1614,16.139,23.74,28,100,3.45,LY,1745434028
59,san luis de la loma,17.2706,-100.8939,30.98,55,100,3.78,MX,1745434030
60,sainyabuli,19.25,101.75,25.59,67,76,0.62,LA,1745434032
61,beroroha,-21.6667,45.1667,25.05,62,0,1.82,MG,1745434033
62,klyuchi,52.2667,79.1667,9.61,71,100,6.03,RU,1745434034
63,longyearbyen,78.2186,15.6401,-12.09,67,75,3.09,SJ,1745434035
64,corner brook,48.9667,-57.9484,8.69,60,100,4.32,CA,1745434036
65,kurumkan,54.3,110.3,-4.08,65,8,1.28,RU,1745434038
66,hermanus,-34.4187,19.2345,16.56,79,2,4.52,ZA,1745434039
67,mengcheng chengguanzhen,33.2661,116.566,17.53,53,100,3.15,CN,1745434040
68,petropavlovsk-kamchatsky,53.0452,158.6483,2.33,60,75,4.0,RU,1745434042
69,yellowknife,62.456,-114.3525,-4.69,58,75,5.14,CA,1745433965
70,bethel,41.3712,-73.414,23.02,30,0,2.68,US,1745434045
71,levuka,50.1834,-105.4011,8.85,37,20,2.57,CA,1745434046
72,grand forks,47.9417,-97.4337,8.85,65,100,7.2,US,1745434047
73,vilyuchinsk,52.9306,158.4028,3.15,84,100,3.27,RU,1745434048
74,floro,61.5996,5.0328,9.98,50,0,7.72,NO,1745434049
75,tazacorte,28.629,-17.9293,19.54,78,75,5.66,ES,1745434051
76,tolanaro,-25.0319,46.9987,24.14,91,100,3.8,MG,1745434052
77,gracemere,-23.4333,150.45,17.43,88,100,1.54,AU,1745434053
78,merizo village,13.2658,144.6691,26.66,86,96,6.17,GU,1745434054
79,chacabuco,-34.6417,-60.4739,23.24,56,100,1.91,AR,1745433929
80,albany,42.6001,-73.9662,19.64,35,6,1.79,US,1745433867
81,kodiak,57.79,-152.4072,3.73,93,100,6.69,US,1745434058
82,iqaluit,63.7506,-68.5145,-1.15,86,100,2.57,CA,1745434059
83,kailua-kona,19.6406,-155.9956,27.0,68,0,0.45,US,1745434060
84,sandnessjoen,66.0217,12.6316,3.06,52,40,2.57,NO,1745434061
85,bochum,51.4833,7.2167,12.36,95,100,1.46,DE,1745433915
86,shingu,33.7333,135.9833,18.92,96,100,1.29,JP,1745434013
87,genhe,50.7833,121.5167,-1.83,82,100,5.86,CN,1745434064
88,bay roberts,47.5999,-53.2648,6.14,78,100,2.24,CA,1745434066
89,arvayheer,46.2639,102.775,1.0,31,0,1.54,MN,1745434067
90,indramayu,-6.3264,108.32,29.4,82,9,2.37,ID,1745434068
91,alaghsas,17.0187,8.0168,36.94,6,0,4.63,NE,1745434069
92,haiku-pauwela,20.9219,-156.3051,25.7,75,1,5.36,US,1745434070
93,blackmans bay,-43.0167,147.3167,8.07,93,0,3.32,AU,1745434071
94,west sayville,40.7279,-73.0976,20.73,47,13,3.58,US,1745434072
95,badger,64.8,-147.5333,5.14,66,100,5.14,US,1745434073
96,paramonga,-10.6667,-77.8333,22.25,77,43,4.7,PE,1745434077
97,severo-yeniseyskiy,60.3725,93.0408,-6.35,93,80,4.19,RU,1745434078
98,portland,45.5234,-122.6762,18.98,49,0,2.68,US,1745433823
99,sitka,57.0531,-135.33,8.94,71,100,5.66,US,1745434080
100,korla,41.7597,86.1469,16.57,23,100,2.49,CN,1745434082
101,chibougamau,49.9168,-74.3659,2.79,87,100,3.6,CA,1745434083
102,gurun,5.8172,100.4738,22.84,92,98,2.19,MY,1745434084
103,mata-utu,-13.2816,-176.1745,28.78,72,100,6.57,WF,1745434085
104,okha,53.5739,142.9478,-2.95,88,5,3.4,RU,1745434086
105,avarua,-21.2078,-159.775,27.03,94,40,3.6,CK,1745434088
106,sinop,41.7711,34.8709,10.89,90,100,1.86,TR,1745434025
107,enewetak,11.3474,162.3373,27.24,76,71,7.48,MH,1745434090
108,weno,7.4515,151.8468,28.15,75,100,5.73,FM,1745434091
109,vallo della lucania,40.2297,15.2658,15.41,85,100,0.59,IT,1745433956
110,whitehorse,60.7161,-135.0538,5.61,63,100,4.63,CA,1745434095
111,ippy,6.2679,21.2247,23.54,78,15,1.77,CF,1745434096
112,rovaniemi,66.5,25.7167,-0.33,69,20,3.09,FI,1745434034
113,galliano,29.4422,-90.2992,27.0,65,40,5.14,US,1745434098
114,chaplygin,53.2432,39.9629,17.3,50,25,0.5,RU,1745434099
115,kitimat,54.0524,-128.6534,9.95,70,100,0.45,CA,1745434095
116,ola,59.5833,151.2833,-1.23,83,100,3.17,RU,1745433933
117,reggane,26.7158,0.1714,31.57,8,100,4.71,DZ,1745434103
118,odda,60.0691,6.5457,7.72,88,100,0.24,NO,1745434104
119,caceres,39.522,-6.3748,17.06,62,5,0.29,ES,1745434000
120,wolgast,54.05,13.7667,11.59,100,20,2.89,DE,1745433879
121,keflavik,64.0049,-22.5624,7.24,65,75,9.26,IS,1745434107
122,banda aceh,5.5577,95.3222,26.81,75,100,5.04,ID,1745434108
123,wailua homesteads,22.0669,-159.378,25.44,93,40,8.23,US,1745434110
124,jamestown,42.097,-79.2353,21.98,39,100,4.12,US,1745434112
125,georgetown,5.4112,100.3354,26.96,87,20,2.06,MY,1745433917
126,hamilton,39.1834,-84.5333,26.56,34,0,1.79,US,1745433834
127,coahuayana de hidalgo,18.7,-103.6583,32.64,41,9,3.63,MX,1745434116
128,port alfred,-33.5906,26.891,17.32,96,82,1.34,ZA,1745434015
129,berdigestyakh,62.0989,126.6992,-2.38,98,100,1.73,RU,1745434118
130,nantucket,41.2835,-70.0995,16.06,39,0,3.09,US,1745434119
131,selfoss,63.9331,-20.9971,7.04,59,100,4.74,IS,1745434120
132,fort st. john,56.2499,-120.8529,8.94,43,40,2.06,CA,1745433891
133,urengoy,65.9667,78.3667,-11.12,94,100,6.22,RU,1745434122
134,iskateley,67.6803,53.1512,-2.92,88,100,6.05,RU,1745434124
135,bengkulu,-3.8004,102.2655,24.21,89,92,1.78,ID,1745434126
136,nakamura,32.9833,132.9333,13.81,95,41,1.86,JP,1745434127
137,jumla,29.2747,82.1838,8.41,34,0,2.3,NP,1745434128
138,bilibino,68.0546,166.4372,-14.41,89,74,2.47,RU,1745434129
139,saint-leu,-21.15,55.2833,25.48,79,17,3.0,RE,1745434130
140,kingston,17.997,-76.7936,30.53,58,20,3.09,JM,1745433856
141,bubaque,11.2833,-15.8333,24.83,78,3,6.63,GW,1745434133
142,usogorsk,63.4106,48.6872,-0.16,95,100,5.18,RU,1745434134
143,umm kaddadah,13.6017,26.6876,32.66,18,5,5.73,SD,1745434135
144,ponta delgada,37.7333,-25.6667,18.44,88,40,5.14,PT,1745434136
145,semporna,4.4818,118.6112,24.43,94,100,0.81,MY,1745434137
146,north battleford,52.7834,-108.2847,12.05,37,0,4.12,CA,1745433967
147,stanley,54.868,-1.6985,7.51,88,75,3.6,GB,1745434139
148,pointe michel,15.25,-61.3833,29.52,74,20,2.06,DM,1745434141
149,kiunga,-6.1219,141.2906,22.62,99,99,0.55,PG,1745434142
150,nemuro,43.3236,145.575,1.61,98,100,5.22,JP,1745433890
151,butia,-30.1197,-51.9622,27.28,45,0,1.27,BR,1745434144
152,hotan,37.0997,79.9269,17.14,35,100,2.39,CN,1745434145
153,vila franca do campo,37.7167,-25.4333,18.27,70,61,4.59,PT,1745434146
154,kachug,53.9606,105.8817,-3.71,59,95,1.04,RU,1745434148
155,tazovsky,67.4667,78.7,-16.94,98,69,4.68,RU,1745434149
156,kuressaare,58.2481,22.5039,8.3,97,100,1.54,EE,1745434150
157,iranshahr,27.2025,60.6848,31.19,11,0,4.12,IR,1745434151
158,aras-asan,8.8908,126.3033,24.38,84,100,1.43,PH,1745434152
159,bamyan,34.75,67.25,4.83,60,0,1.79,AF,1745434153
160,bikaner,28.0167,73.3,29.41,6,0,5.7,IN,1745434154
161,madona,56.8533,26.217,9.43,86,40,1.97,LV,1745434156
162,st. john's,47.5649,-52.7093,5.04,81,75,5.14,CA,1745433918
163,murun-kuren,49.6342,100.1625,2.67,54,41,1.7,MN,1745434158
164,afaahiti,-17.75,-149.2833,26.15,74,94,8.54,PF,1745434159
165,port-cartier,50.0334,-66.8654,1.07,100,100,3.3,CA,1745433708
166,karratha,-20.7377,116.8463,28.05,72,1,3.55,AU,1745434161
167,illizi,26.4833,8.4667,27.69,14,100,3.85,DZ,1745434162
168,luanda,-8.8368,13.2343,26.0,83,40,6.17,AO,1745434033
169,sungai penuh,-2.0833,101.3833,17.85,95,95,0.97,ID,1745434165
170,ulan bator,47.9077,106.8832,-10.93,57,0,1.0,MN,1745434166
171,hanting,36.7708,119.2108,13.82,55,100,6.45,CN,1745434167
172,conde,-7.2597,-34.9075,27.7,78,75,3.6,BR,1745434168
173,taltal,-25.4,-70.4833,19.12,70,35,1.16,CL,1745434169
174,puerto san jose,13.9256,-90.8244,34.43,55,37,4.96,GT,1745434010
175,port mathurin,-19.6833,63.4167,26.92,75,20,6.64,MU,1745434172
176,pama,11.2497,0.7075,36.68,25,100,1.08,BF,1745434173
177,muscat,23.6139,58.5922,31.28,31,0,2.2,OM,1745434174
178,seguela,7.9611,-6.6731,27.86,66,100,0.26,CI,1745434175
179,invercargill,-46.4,168.35,1.68,96,35,1.79,NZ,1745434176
180,bardai,11.65,7.2333,32.45,12,13,3.98,NG,1745434177
181,axim,4.8699,-2.2405,27.87,81,100,2.84,GH,1745434178
182,carnarvon,-24.8667,113.6333,23.39,76,100,10.55,AU,1745434180
183,mhamid,29.82,-5.72,30.9,13,64,3.69,MA,1745434181
184,dunedin,-45.8742,170.5036,5.77,84,5,2.26,NZ,1745433980
185,yellapur,14.9667,74.7167,24.02,87,100,1.75,IN,1745434183
186,tra mhor,52.1624,-7.1524,11.72,86,100,0.45,IE,1745434184
187,klaksvik,62.2266,-6.589,7.55,92,100,5.87,FO,1745434187
188,inari,68.906,27.0288,-5.12,87,42,1.73,FI,1745434188
189,leninskoye,41.7589,69.3864,12.33,54,6,2.73,KZ,1745434189
190,mar del plata,-38.0023,-57.5575,23.01,66,20,3.09,AR,1745433506
191,tsumeb,-19.2333,17.7167,22.03,50,73,1.28,NA,1745434191
192,puerto baquerizo moreno,-0.9,-89.6,27.55,78,75,4.12,EC,1745433942
193,hsinchu,24.8036,120.9686,22.16,94,100,0.45,TW,1745434194
194,dongola,19.1667,30.4833,35.75,11,6,3.51,SD,1745434195
195,oranjemund,-28.55,16.4333,15.75,87,0,5.08,NA,1745434196
196,mount isa,-20.7333,139.5,13.87,72,0,3.6,AU,1745434197
197,chipinge,-20.1883,32.6236,16.94,93,35,2.92,ZW,1745434198
198,olonkinbyen,70.9221,-8.7187,-4.72,68,99,5.66,SJ,1745434199
199,mazar-e sharif,36.709,67.1109,20.93,38,16,1.71,AF,1745434201
200,ivanteyevka,55.9711,37.9208,12.89,100,100,0.45,RU,1745434202
201,carutapera,-1.195,-46.02,23.23,98,100,1.66,BR,1745434203
202,lospalos,-8.5186,127.0025,21.96,87,100,2.34,TL,1745434204
203,manokwari,-0.8667,134.0833,25.73,83,100,1.42,ID,1745434205
204,xudat,41.631,48.681,14.33,81,85,0.95,AZ,1745434206
205,barra de santo antonio,-9.4047,-35.5072,29.08,63,12,3.97,BR,1745434208
206,yamada,39.4667,141.95,9.22,94,100,3.64,JP,1745434209
207,hithadhoo,-0.6,73.0833,28.74,75,98,5.85,MV,1745434210
208,ust-nera,64.5667,143.2,-9.79,95,100,2.62,RU,1745434212
209,quebo,11.3333,-14.9333,28.99,46,1,4.69,GW,1745434213
210,koyulhisar,40.3025,37.8311,10.52,83,23,1.08,TR,1745434215
211,nsanje,-16.92,35.262,22.19,83,5,1.43,MW,1745434217
212,fale old settlement,-9.3852,-171.2468,28.57,73,26,1.4,TK,1745434218
213,greymouth,-42.4667,171.2,10.08,94,99,1.74,NZ,1745434219
214,dickinson,29.4608,-95.0513,23.97,92,75,1.79,US,1745434220
215,turan,16.0678,108.2208,25.99,89,20,1.54,VN,1745434222
216,tanjung selor,2.8372,117.3642,23.32,98,100,0.59,ID,1745434223
217,massawa,15.6097,39.45,30.02,60,62,0.98,ER,1745434224
218,saldanha,-33.0117,17.9442,15.56,88,1,4.76,ZA,1745434225
219,tocopilla,-22.092,-70.1979,21.85,74,24,6.38,CL,1745434227
220,awjilah,29.1081,21.2869,20.89,54,100,8.13,LY,1745434228
221,turtas,58.9417,69.1325,-2.16,79,10,1.02,RU,1745434229
222,jurmala,56.968,23.7704,12.01,87,20,0.51,LV,1745434230
223,nieuw amsterdam,5.8833,-55.0833,27.01,89,40,0.0,SR,1745434231
224,xai-xai,-25.0519,33.6442,22.77,90,94,3.92,MZ,1745434232
225,mosjoen,65.836,13.1908,2.29,51,40,3.09,NO,1745434233
226,shuangjiang,26.1547,109.7138,15.17,98,100,1.1,CN,1745434235
227,khandyga,62.6667,135.6,-5.74,98,100,0.81,RU,1745434236
228,atafu village,-8.5421,-172.5159,28.72,74,6,3.05,TK,1745434121
229,imbituba,-28.24,-48.6703,25.0,74,100,5.46,BR,1745434238
230,novocheboksarsk,56.111,47.4776,12.31,66,0,2.0,RU,1745434240
231,praia da vitoria,38.7333,-27.0667,21.14,60,75,3.7,PT,1745434242
232,nar'yan-mar,67.6713,53.087,-2.97,89,100,6.0,RU,1745434243
233,amga,60.8953,131.9608,-2.86,96,100,1.16,RU,1745434244
234,san antonio de pale,-1.4014,5.6325,28.03,81,100,3.27,GQ,1745434245
235,aqaba,29.5267,35.0078,30.92,15,100,2.06,JO,1745434246
236,kurchatov,51.6601,35.6521,15.2,47,41,2.43,RU,1745434247
237,ust'-ilimsk,58.0006,102.6619,0.72,67,100,4.83,RU,1745434248
238,newman,37.3138,-121.0208,20.03,48,6,0.97,US,1745434250
239,east london,-33.0153,27.9116,17.52,94,75,1.03,ZA,1745434252
240,pucallpa,-8.3791,-74.5539,25.02,100,100,2.06,PE,1745434253
241,road town,18.4167,-64.6167,28.02,57,20,2.06,VG,1745434240
242,solnechnyy,50.7214,136.6319,0.24,85,100,2.63,RU,1745434256
243,kone,-21.0595,164.8658,22.72,93,48,1.27,NC,1745434257
244,gantang,26.92,119.6333,16.73,97,99,0.88,CN,1745434258
245,sanctuary point,-35.1114,150.629,16.64,88,64,1.2,AU,1745434259
246,rauma,61.1272,21.5113,4.51,81,75,4.1,FI,1745434260
247,hammerfest,70.6634,23.6821,-0.75,86,75,1.03,NO,1745434261
248,lucapa,-8.4192,20.7447,20.52,91,34,1.36,AO,1745434264
249,susuman,62.7833,148.1667,-6.38,93,100,1.98,RU,1745434265
250,sisimiut,66.9395,-53.6735,0.26,76,10,3.26,GL,1745434266
251,aykol,38.1751,77.2132,15.32,42,98,3.61,CN,1745434267
252,antalaha,-14.9003,50.2788,24.7,91,15,2.86,MG,1745434269
253,mapastepec,15.4333,-92.9,34.86,48,48,4.83,MX,1745434270
254,santiago de cao,-7.9589,-79.2392,15.07,88,75,5.14,PE,1745434271
255,les cayes,18.2,-73.75,29.17,55,67,4.04,HT,1745434272
256,huntsville,34.7304,-86.5861,23.52,77,100,2.57,US,1745433767
257,igboho,8.8333,3.75,23.96,84,100,4.34,NG,1745434275
258,sosnovo-ozerskoye,52.5249,111.5418,-6.11,61,11,2.1,RU,1745434276
259,touros,-5.1989,-35.4608,26.09,85,100,5.8,BR,1745435427
260,chiang kham,19.5233,100.3,27.76,24,44,1.75,TH,1745435429
261,noyabrsk,63.1994,75.4507,-9.58,96,95,4.28,RU,1745435430
262,lubang,13.8584,120.124,28.15,74,3,3.14,PH,1745435431
263,tupanatinga,-8.7533,-37.3397,30.7,22,100,6.44,BR,1745435432
264,banff,51.1762,-115.5698,6.77,33,98,1.19,CA,1745435433
265,bodden town,19.2833,-81.25,28.57,64,24,7.22,KY,1745435434
266,centerville,39.6284,-84.1594,25.55,37,0,2.24,US,1745435199
267,port elizabeth,-33.918,25.5701,18.16,97,75,4.12,ZA,1745435437
268,zabid,14.1951,43.3152,29.47,52,0,2.64,YE,1745435439
269,uturoa,-16.7333,-151.4333,27.49,81,100,7.07,PF,1745435440
270,polyarnyy,69.1989,33.4478,-0.82,71,100,8.04,RU,1745435441
271,tromso,69.6496,18.957,-0.99,86,40,1.03,NO,1745435442
272,mount pearl,47.5166,-52.7813,3.51,81,100,3.97,CA,1745435443
273,dongsheng,39.8161,109.9776,3.29,26,68,2.28,CN,1745435444
274,mtwara,-10.2667,40.1833,24.91,90,3,3.33,TZ,1745435446
275,deming,32.2687,-107.7586,27.94,6,0,7.2,US,1745435447
276,belmonte,-15.8631,-38.8828,27.42,67,99,4.16,BR,1745435448
277,bukama,-9.2,25.85,22.5,92,94,0.44,CD,1745435449
278,luderitz,-26.6481,15.1594,16.95,73,0,5.94,NA,1745435450
279,tralee,52.2704,-9.7026,11.2,90,28,1.61,IE,1745435452
280,praya,14.9215,-23.5087,24.3,60,20,8.75,CV,1745435453
281,chilmari,25.5559,89.6715,26.33,89,1,9.29,BD,1745435454
282,nev'yansk,57.4953,60.2112,0.93,68,15,2.98,RU,1745435281
283,remire-montjoly,4.9167,-52.2667,31.02,70,75,5.66,GF,1745435318
284,colares,38.7992,-9.4469,20.55,68,0,6.69,PT,1745435457
285,kaohsiung,22.6163,120.3133,26.25,79,100,3.28,TW,1745435459
286,missoula,47.0166,-113.8009,9.48,33,13,1.36,US,1745435460
287,el bauga,18.262,33.9081,34.74,17,0,9.16,SD,1745435461
288,la cabima,9.1333,-79.5333,31.97,56,40,3.6,PA,1745435462
289,loango,-4.6719,11.8312,26.04,91,89,3.25,CG,1745435463
290,keskin,39.6731,33.6136,12.24,50,100,2.12,TR,1745435464
291,paita,-5.0892,-81.1144,24.99,67,11,5.73,PE,1745435465
292,shushtar,32.0455,48.8567,30.56,19,0,3.2,IR,1745435466
293,bloemfontein,-29.1211,26.214,12.48,89,100,6.91,ZA,1745435346
294,san angelo,31.4638,-100.437,27.55,62,100,4.12,US,1745435469
295,lata,40.1629,-8.3327,14.16,84,7,1.58,PT,1745435470
296,flying fish cove,-10.4217,105.6791,24.82,94,100,1.03,CX,1745435473
297,khovd,48.0056,91.6419,7.78,33,8,1.15,MN,1745435475
298,rongelap,11.1635,166.8941,27.08,75,100,6.41,MH,1745435476
299,bonthe,7.5264,-12.505,27.89,80,85,4.68,SL,1745435479
300,chonchi,-42.6128,-73.8092,14.73,69,77,0.82,CL,1745435480
301,baikunthpur,23.25,82.55,27.45,10,0,1.84,IN,1745435481
302,ancud,-41.8697,-73.8203,13.19,75,34,1.91,CL,1745435483
303,nguigmi,14.2495,13.1092,30.82,23,34,3.37,NE,1745435484
304,cockburn town,21.4612,-71.1419,25.7,76,4,5.92,TC,1745435420
305,umbertide,43.3055,12.3366,15.66,93,100,1.59,IT,1745435486
306,butembo,0.15,29.2833,15.26,98,100,1.15,CD,1745435487
307,sao tome,0.3365,6.7273,27.65,82,99,3.37,ST,1745435489
308,hoemul-li,41.4339,129.67,6.58,96,100,1.93,KP,1745435490
309,chongoyape,-6.6406,-79.3892,30.89,49,23,3.38,PE,1745435492
310,knyaze-volkonskoye,48.4642,135.4567,3.19,79,100,3.16,RU,1745435493
311,arraial do cabo,-22.9661,-42.0278,24.92,73,20,6.17,BR,1745435494
312,ankang,32.68,109.0172,19.75,35,100,0.89,CN,1745435495
313,beitbridge,-22.2167,30.0,24.89,46,71,7.36,ZW,1745435497
314,andergrove,-21.0833,149.1833,15.48,76,0,3.48,AU,1745435498
315,villamontes,-21.25,-63.5,21.69,94,100,0.0,BO,1745435500
316,yeppoon,-23.1333,150.7333,17.54,77,60,3.21,AU,1745435502
317,nuriootpa,-34.4833,139.0,12.41,77,0,1.79,AU,1745435503
318,kavali,14.9167,79.9833,27.32,85,17,5.25,IN,1745435504
319,rohtak,28.9,76.5667,29.84,6,0,2.77,IN,1745435505
320,menongue,-14.6585,17.691,17.48,91,39,1.58,AO,1745435351
321,vadso,70.0744,29.7487,-3.91,86,40,6.17,NO,1745435507
322,la ronge,55.1001,-105.2842,12.14,37,75,4.63,CA,1745435508
323,tshabong,-26.05,22.45,18.35,37,0,4.17,BW,1745435509
324,mersing,2.4312,103.8405,24.93,93,95,1.48,MY,1745435511
325,tezu,27.9167,96.1667,19.16,94,100,2.38,IN,1745435512
326,kapuskasing,49.4169,-82.4331,11.0,40,100,0.51,CA,1745435513
327,sogndal,61.2283,7.1003,12.21,57,20,2.06,NO,1745435514
328,katsuren-haebaru,26.3369,127.8719,21.01,78,0,0.0,JP,1745435515
329,itapipoca,-3.4944,-39.5786,25.86,91,100,1.95,BR,1745435516
330,plouzane,48.3833,-4.6167,12.03,93,100,5.14,FR,1745435517
331,salekhard,66.53,66.6019,-6.05,85,100,5.73,RU,1745435518
332,howard springs,-12.497,131.047,21.95,81,30,2.75,AU,1745435520
333,sao jose da coroa grande,-8.8978,-35.1478,28.8,70,64,4.03,BR,1745435521
334,minas de marcona,-15.2119,-75.1103,21.19,54,2,8.88,PE,1745435522
335,pariaman,-0.619,100.12,25.03,92,35,2.02,ID,1745435523
336,selkirk,50.1436,-96.8845,4.27,87,100,5.75,CA,1745435524
337,upington,-28.4478,21.2561,14.21,72,5,3.09,ZA,1745435525
338,lodja,-3.4833,23.4333,20.29,99,100,0.83,CD,1745435526
339,queenstown,-31.8976,26.8753,12.39,93,100,1.55,ZA,1745435528
340,salalah,17.0151,54.0924,28.05,78,0,1.03,OM,1745435324
341,reedsburg,43.5325,-90.0026,22.19,49,40,5.66,US,1745435530
342,prince george,53.9166,-122.753,10.72,52,86,0.89,CA,1745435531
343,betio village,1.358,172.9211,27.49,82,54,6.21,KI,1745435532
344,port lincoln,-34.7333,135.8667,15.03,77,5,3.01,AU,1745435533
345,linxia chengguanzhen,35.6003,103.2064,8.88,32,99,0.64,CN,1745435535
346,ad dilam,23.9915,47.1627,30.59,11,0,3.55,SA,1745435536
347,kauhajoki,62.4333,22.1833,0.06,70,12,2.69,FI,1745435537
348,macapa,0.0389,-51.0664,29.99,79,75,6.17,BR,1745435423
349,timbuktu,16.7735,-3.0074,37.77,4,100,4.9,ML,1745435541
350,alice springs,-23.7,133.8833,7.75,87,0,2.57,AU,1745435542
351,kamaishi,39.2667,141.8833,10.4,94,100,4.11,JP,1745435544
352,san jose,37.3394,-121.895,19.18,53,20,1.54,US,1745435400
353,gazojak,41.1875,61.4036,22.63,19,3,4.61,TM,1745435546
354,labrador city,52.9463,-66.9114,3.15,81,100,2.69,CA,1745435547
355,taroa,8.7058,171.2275,27.27,79,100,6.85,MH,1745435548
356,gadzhiyevo,69.2551,33.3362,-1.18,70,99,7.76,RU,1745435549
357,udachny,66.4167,112.4,-17.12,98,100,2.48,RU,1745435550
358,kelibia,36.8476,11.0939,15.9,80,1,9.36,TN,1745435552
359,nikolayevsk-on-amure,53.1406,140.73,-0.5,91,93,0.78,RU,1745435553
360,asaita,11.5636,41.4394,31.57,19,5,5.34,ET,1745435554
361,kankaanpaa,61.8,22.4167,2.91,71,37,3.56,FI,1745435555
362,yuzhno-kurilsk,44.0306,145.8556,1.5,91,0,1.21,RU,1745435556
363,daru,-9.0763,143.2092,25.11,90,97,1.31,PG,1745435557
364,los frentones,-26.4077,-61.4137,23.09,88,100,1.77,AR,1745435558
365,kerikeri,-35.2268,173.9474,16.06,91,98,2.68,NZ,1745435560
366,kismayo,-0.3582,42.5454,28.3,73,14,5.19,SO,1745435561
367,faridpur,23.6,89.8333,27.8,85,0,5.97,BD,1745435562
368,sleaford,52.9983,-0.4094,11.6,82,75,5.14,GB,1745435563
369,kolno,53.4115,21.9291,12.36,63,22,2.2,PL,1745435565
370,lokomotivnyy,53.0118,60.5684,9.41,83,14,5.14,RU,1745435567
371,richards bay,-28.783,32.0377,19.14,93,100,0.75,ZA,1745435568
372,nadym,65.5333,72.5167,-11.96,92,47,4.84,RU,1745435569
373,valle de la pascua,9.2155,-66.0073,31.37,47,100,2.29,VE,1745435570
374,helena valley southeast,46.6153,-111.9216,12.08,29,0,1.54,US,1745435571
375,soio,-6.1349,12.3689,26.26,89,14,3.86,AO,1745435573
376,dahab,28.501,34.5134,28.68,34,92,0.94,EG,1745435574
377,nuku'alofa,-21.1333,-175.2,24.19,83,20,2.57,TO,1745435575
378,yanykurgan,43.915,67.2481,19.41,34,0,2.86,KZ,1745435576
379,nouadhibou,20.931,-17.0347,20.99,68,0,10.29,MR,1745435577
380,novoselitskoye,44.7508,43.4369,14.58,88,100,4.07,RU,1745435579
381,rabo de peixe,37.8,-25.5833,17.77,70,40,5.14,PT,1745435580
382,puerto lempira,15.2667,-83.7667,31.08,66,40,5.14,HN,1745435581
383,pandan,14.0453,124.1694,25.2,83,98,2.09,PH,1745435582
384,argo,37.6333,22.7333,19.16,61,100,1.63,GR,1745435583
385,wolmirstedt,52.25,11.6333,14.14,77,77,3.06,DE,1745435584
386,geraldton,-28.7667,114.6,21.23,56,100,7.72,AU,1745435585
387,igarka,67.4667,86.5833,-11.5,91,100,12.09,RU,1745435587
388,saint-denis,48.9167,2.3333,14.09,75,75,2.57,FR,1745435588
389,loukhi,66.0764,33.0381,0.13,93,100,5.28,RU,1745435589
390,porto belo,-27.1578,-48.5531,24.42,75,100,4.94,BR,1745435422
391,hobyo,5.3505,48.5268,29.79,60,51,4.8,SO,1745435591
392,ketchikan,55.3422,-131.6461,8.52,93,100,7.2,US,1745435592
393,najran,17.4924,44.1277,23.35,18,0,1.73,SA,1745435593
394,sao vicente,-23.9631,-46.3919,25.0,56,64,2.24,BR,1745435298
395,saynshand,44.8824,110.1163,0.24,23,1,4.26,MN,1745435337
396,jurm,36.8648,70.8342,9.9,51,100,0.57,AF,1745435597
397,kavaratti,10.5669,72.642,29.4,77,60,5.27,IN,1745435598
398,newport,51.5877,-2.9984,13.4,79,95,2.85,GB,1745435599
399,san jose del guaviare,2.5729,-72.6459,29.13,81,93,2.26,CO,1745435601
400,ballina,-28.8667,153.5667,19.23,85,72,9.2,AU,1745435602
401,hasaki,35.7333,140.8333,15.1,92,100,7.63,JP,1745435603
402,acapulco de juarez,16.8634,-99.8901,30.9,62,0,4.63,MX,1745435604
403,kununurra,-15.7667,128.7333,16.99,82,99,1.54,AU,1745435459
404,melito di porto salvo,37.9222,15.7714,16.94,82,75,6.69,IT,1745435606
405,holualoa,19.6228,-155.9522,25.48,64,0,3.09,US,1745435607
406,aasiaat,68.7098,-52.8699,-2.32,82,38,2.31,GL,1745435609
407,columbus,39.9612,-82.9988,26.95,34,20,2.06,US,1745435234
408,bay harbor,30.1471,-85.6146,29.04,62,20,5.14,US,1745435611
409,orange,33.7,-117.7675,18.12,69,100,4.12,US,1745435521
410,camiri,-20.05,-63.5167,23.88,83,100,0.0,BO,1745435613
411,lianzhou,24.7811,112.3825,21.52,96,100,0.71,CN,1745435614
412,arkhangel'sk,64.5401,40.5433,0.06,100,100,1.0,RU,1745435616
413,bijie,27.3125,105.2942,10.24,77,100,3.37,CN,1745435617
414,aioun,16.6614,-9.6149,36.87,9,70,4.28,MR,1745435618
415,thomson,33.4707,-82.5046,26.28,70,100,0.0,US,1745435038
416,pueblo nuevo,23.3833,-105.3833,23.38,8,27,3.75,MX,1745435620
417,lusambo,-4.9667,23.45,21.66,95,93,0.59,CD,1745435622
418,puntarenas,9.9763,-84.8384,31.08,55,60,4.35,CR,1745435337
419,manali,13.1667,80.2667,30.08,84,29,4.19,IN,1745435080
420,muravlenko,63.7898,74.523,-8.76,96,99,4.66,RU,1745435625
421,puerto colombia,10.9878,-74.9547,32.05,73,19,8.54,CO,1745435626
422,aguililla,18.7333,-102.7333,35.3,11,100,1.47,MX,1745435627
423,bachatskiy,54.2927,86.1285,3.31,75,100,5.4,RU,1745435628
424,kayangel,8.0823,134.7173,28.49,74,100,5.0,PW,1745435629
425,port douglas,-16.4833,145.4667,23.93,85,100,3.51,AU,1745435631
426,port moresby,-9.4431,147.1797,24.0,89,99,1.21,PG,1745435632
427,shalqar,47.8333,59.6,19.42,29,100,2.63,KZ,1745435633
428,balykshi,47.0667,51.8667,19.0,55,10,5.0,KZ,1745435348
429,saint-francois,46.4154,3.9054,9.69,89,40,1.54,FR,1745435635
430,sokur,55.2093,83.319,2.21,66,100,4.96,RU,1745435636
431,skagen,57.7209,10.5839,9.58,84,100,4.54,DK,1745435637
432,kourou,5.1552,-52.6478,28.68,71,100,4.12,GF,1745435638
433,capinopolis,-18.6819,-49.5697,29.23,52,100,1.21,BR,1745435641
434,mucumpiz,8.4167,-71.1333,18.34,87,100,1.32,VE,1745435643
435,lihue,21.9789,-159.3672,25.77,73,40,7.72,US,1745435637
436,callao,-12.0667,-77.15,21.16,78,20,5.14,PE,1745435609
437,koutiala,12.3917,-5.4642,33.86,34,100,8.27,ML,1745435599
438,raduzhny,62.0961,77.475,-9.21,92,23,5.43,RU,1745435648
439,kabalo,-6.05,26.9167,22.36,94,100,1.04,CD,1745435649
440,coxen hole,16.3244,-86.5366,30.6,66,20,7.72,HN,1745435650
441,mejit,10.2753,170.8646,26.84,79,27,7.02,MH,1745435652
442,figuig (centre),32.1089,-1.2286,25.71,14,0,3.18,MA,1745435653
443,flin flon,54.7682,-101.865,7.91,34,40,4.12,CA,1745435654
444,cidreira,-30.1811,-50.2056,26.79,65,0,3.89,BR,1745435655
445,sao joao da barra,-21.6403,-41.0511,26.05,67,45,3.9,BR,1745435656
446,pirgaaj,25.8604,88.3635,27.68,23,0,0.95,BD,1745435657
447,beruniy,41.6911,60.7525,17.98,45,0,3.09,UZ,1745435446
448,maitum,6.0392,124.4986,25.6,86,97,1.78,PH,1745435660
449,zhangye,38.9342,100.4517,10.73,18,19,1.61,CN,1745435661
450,alotau,-10.3069,150.4462,24.13,93,100,1.2,PG,1745435662
451,glubokoye,50.1456,82.3114,8.86,87,75,3.0,KZ,1745435663
452,vorgashor,67.5833,63.95,-6.89,94,100,4.16,RU,1745435664
453,san andres,12.5847,-81.7006,29.01,61,20,3.09,CO,1745435428
454,sarina,-21.4333,149.2167,15.9,77,0,1.85,AU,1745435666
455,goure,13.9835,10.2704,30.82,11,100,0.98,NE,1745435669
456,atherton,53.5237,-2.4935,14.08,73,98,0.45,GB,1745435670
457,nabire,-3.3667,135.4833,24.26,93,100,0.81,ID,1745435671
458,caconda,-13.7333,15.0667,17.79,78,81,1.98,AO,1745435672
459,melfort,52.8667,-104.6177,11.07,17,100,2.57,CA,1745435673
460,palmer,42.1584,-72.3287,22.75,25,40,8.75,US,1745435502
461,trimbak,19.9333,73.55,26.63,21,0,0.99,IN,1745435675
462,freetown,8.484,-13.2299,27.17,82,60,3.92,SL,1745435405
463,hastings,50.8552,0.5729,10.86,85,100,7.3,GB,1745435528
464,al mahwit,15.4701,43.5448,18.29,42,0,1.55,YE,1745435679
465,zhoukou,33.6333,114.6333,17.71,37,100,3.82,CN,1745435680
466,punta cana,18.5818,-68.4043,28.87,58,40,4.47,DO,1745435327
467,orleans,30.0335,-89.9501,28.33,57,75,5.14,US,1745435682
468,cumberland,35.0502,-78.8664,27.36,68,0,3.09,US,1745435683
469,santana,-0.0583,-51.1817,30.1,79,75,6.17,BR,1745435685
470,cabo san lucas,22.8909,-109.9124,28.17,47,20,5.81,MX,1745435392
471,bandon,51.7469,-8.7425,12.77,83,100,1.55,IE,1745435687
472,namibe,-15.1961,12.1522,22.07,75,0,4.17,AO,1745435688
473,boa vista,2.8197,-60.6733,27.99,78,40,2.06,BR,1745435689
474,cooper's town,26.8667,-77.5167,23.69,69,54,5.76,BS,1745435462
475,hashtrud,37.4779,47.0508,14.42,40,4,4.54,IR,1745435692
476,santiago del estero,-27.7951,-64.2615,28.17,52,91,4.73,AR,1745435441
477,qina,26.1642,32.7267,34.36,9,0,3.72,EG,1745435694
478,palu,-0.8917,119.8707,23.95,91,100,1.4,ID,1745435519
479,huangshan,29.7114,118.3125,17.54,87,100,0.11,CN,1745435696
480,paragominas,-2.9667,-47.4833,23.07,98,100,2.13,BR,1745435687
481,coquimbo,-29.9533,-71.3436,17.85,75,20,5.14,CL,1745435699
482,malango,-2.9627,119.9001,19.61,99,100,0.98,ID,1745435700
483,foligno,42.944,12.7011,14.44,87,98,1.3,IT,1745435701
484,bang len,14.0219,100.1718,29.64,78,6,5.21,TH,1745435702
485,monte santo de minas,-21.1897,-46.9803,24.19,67,100,1.56,BR,1745435703
486,mardan,34.2019,72.0525,23.42,21,8,2.99,PK,1745435704
487,aripuana,-9.1667,-60.6333,32.84,49,56,1.3,BR,1745435705
488,colonia,50.9333,6.95,11.65,90,20,0.51,DE,1745435598
489,naryn,41.4287,75.9911,5.28,47,95,1.4,KG,1745435649
490,porto franco,-6.3383,-47.3992,30.57,60,100,1.99,BR,1745435709
491,solleftea,63.1667,17.2667,2.92,47,5,1.98,SE,1745435710
492,da nang,16.0678,108.2208,25.99,89,20,1.54,VN,1745435505
493,ciudad lazaro cardenas,17.9583,-102.2,30.81,51,29,5.11,MX,1745435712
494,bamboo flat,11.7,92.7167,27.29,75,88,2.95,IN,1745435713
495,waingapu,-9.6567,120.2641,25.74,84,100,3.21,ID,1745435715
496,new norfolk,-42.7826,147.0587,8.29,92,0,1.38,AU,1745435716
497,lompoc,34.6391,-120.4579,16.4,69,100,4.12,US,1745435717
498,salym,60.0625,71.4789,-6.24,95,11,1.4,RU,1745435718
499,mount gambier,-37.8333,140.7667,14.09,78,4,2.13,AU,1745435719
500,gewane,10.1664,40.6453,29.9,23,36,7.29,ET,1745435720
501,nuuk,64.1835,-51.7216,-1.66,93,75,5.14,GL,1745435494
502,carbonear,47.7332,-53.2148,5.69,78,100,5.3,CA,1745435635
503,banyo,6.75,11.8167,22.33,80,83,2.43,CM,1745435724
504,buka,40.8108,69.1986,15.74,50,4,3.03,UZ,1745435725
505,chernyshevskiy,63.0128,112.4714,-11.82,97,87,1.41,RU,1745435726
506,santa ana,33.7456,-117.8678,17.65,68,100,4.12,US,1745435727
507,dek'emhare,15.07,39.0475,19.51,37,73,2.85,ER,1745435728
508,prieska,-29.6641,22.7474,19.29,47,80,4.25,ZA,1745435729
509,tamanrasset,22.785,5.5228,30.95,10,0,5.66,DZ,1745435731
510,trosa,58.8962,17.5481,6.78,92,100,4.67,SE,1745435732
511,san carlos de bariloche,-41.1456,-71.3082,15.86,55,40,8.23,AR,1745435710
512,ust'-kut,56.7938,105.7672,-2.66,86,100,1.75,RU,1745435734
513,rundu,-17.9333,19.7667,19.5,81,48,2.13,NA,1745435735
514,chita,52.0333,113.55,-4.06,50,4,1.0,RU,1745435736
515,kill devil hills,36.0307,-75.676,18.01,67,0,5.14,US,1745435737
516,hirara,24.8,125.2833,22.03,88,70,4.52,JP,1745435738
517,arafat,39.0344,44.6198,8.38,76,97,3.76,IR,1745435740
518,shira,54.4911,89.9531,8.56,82,100,7.11,RU,1745435741
519,anar darah,32.7587,61.654,22.61,19,0,2.35,AF,1745435742
520,acarau,-2.8856,-40.12,26.19,86,100,6.06,BR,1745435743
521,norderney,53.7,7.15,10.54,90,100,0.45,DE,1745435744
522,vanino,49.0869,140.2543,0.16,87,65,0.42,RU,1745435745
523,the pas,53.8251,-101.2541,7.04,55,100,1.83,CA,1745435689
524,ust'-kulom,61.6864,53.6902,-0.91,86,100,4.05,RU,1745435747
525,ejura,7.3856,-1.3562,29.29,62,100,3.59,GH,1745435749
526,dryden,49.7833,-92.7503,4.16,93,100,2.57,CA,1745435750
527,lockwood,45.8191,-108.4149,11.9,50,100,5.66,US,1745435751
528,itoman,26.1247,127.6694,21.01,78,88,4.63,JP,1745435753
529,vila velha,-20.3297,-40.2925,25.97,69,0,2.57,BR,1745435668
530,alta,69.9689,23.2717,-1.41,81,75,7.15,NO,1745435755
531,kosh-agach,50.0,88.6667,2.54,75,17,1.33,RU,1745435756
532,luwuk,-0.9516,122.7875,22.86,91,100,1.36,ID,1745435757
533,yorkton,51.2167,-102.4677,3.91,60,0,3.09,CA,1745435759
534,charlottetown,46.2352,-63.1267,11.54,77,100,3.6,CA,1745435523
535,palikir - national government center,6.9248,158.1611,25.52,100,100,3.13,FM,1745435761
536,pacific grove,36.6177,-121.9166,13.37,81,100,3.09,US,1745435485
537,naberera,-4.2,36.9333,17.05,98,100,1.86,TZ,1745435763
538,veradale,47.6499,-117.2074,15.12,33,20,1.34,US,1745435764
539,kiruna,67.8557,20.2251,-2.49,64,7,5.14,SE,1745435765
540,taulaga,-11.0553,-171.0883,28.59,75,52,3.95,AS,1745435766
541,sinan,34.8262,126.1086,10.76,78,0,3.24,KR,1745435769
542,kapa'a,22.0752,-159.319,26.18,93,40,7.72,US,1745435770
543,inarajan village,13.2736,144.7484,26.89,86,96,6.48,GU,1745435771
544,saudarkrokur,65.7461,-19.6394,3.08,64,93,1.77,IS,1745435772
545,yigo village,13.5361,144.8886,26.16,84,40,3.6,GU,1745435773
546,island harbour,50.724,-1.2758,12.04,80,100,1.34,GB,1745435774
547,rosarito,32.3333,-117.0333,17.54,62,14,4.62,MX,1745435704
548,san felipe,10.3399,-68.7425,25.16,87,100,1.41,VE,1745435777
549,rio grande,-32.035,-52.0986,24.14,67,16,2.64,BR,1745435502
550,carauari,-4.8828,-66.8958,35.62,38,25,1.38,BR,1745435780
551,nova sintra,14.8667,-24.7167,21.75,85,0,11.22,CV,1745435782
552,byron bay,-28.65,153.6167,18.98,90,58,7.12,AU,1745435783
553,quellon,-43.1167,-73.6167,13.75,72,21,1.92,CL,1745435785
554,ulladulla,-35.35,150.4667,16.14,91,46,2.04,AU,1745435786
555,ugoofaaru,5.6667,73.0,28.98,70,56,4.28,MV,1745435787
556,lakatoro,-16.0999,167.4164,26.54,86,64,1.43,VU,1745435788
557,pedro juan caballero,-22.5472,-55.7333,24.98,65,0,5.14,PY,1745435702
558,belmar,40.1785,-74.0218,22.4,43,0,3.6,US,1745435763
559,mahina,-17.5065,-149.489,28.87,74,0,1.54,PF,1745435792
560,north bondi,-33.8824,151.2769,18.94,85,9,3.6,AU,1745435793
561,crane,31.3974,-102.3501,26.42,58,87,7.84,US,1745435794
562,namdrik,5.5994,168.1028,27.76,80,97,7.62,MH,1745435795
563,santa vitoria,-18.8386,-50.1214,29.5,50,100,0.47,BR,1745435796
564,wotho,10.1657,166.0102,27.25,72,100,6.84,MH,1745435797
565,katsuura,35.1333,140.3,16.83,97,100,4.64,JP,1745435798
566,onguday,50.75,86.15,8.21,74,80,1.47,RU,1745435800
567,maracacume,-2.0428,-45.9592,22.87,99,100,0.21,BR,1745435801
568,kigoma,-4.8769,29.6267,23.76,79,23,1.59,TZ,1745435802
569,puerto aysen,-45.4,-72.7,13.95,76,44,1.8,CL,1745435803
570,lauro de freitas,-12.8944,-38.3272,28.01,74,75,5.14,BR,1745435729
571,port saint john's,-31.6229,29.5448,20.03,87,100,5.03,ZA,1745435805
572,carnot,4.9409,15.8665,21.7,89,100,0.17,CF,1745435806
573,mammoth lakes,37.6485,-118.9721,13.4,16,0,7.2,US,1745435807
574,yesilhisar,38.3497,35.0867,13.42,71,100,10.57,TR,1745435809
575,buala,-8.145,159.5921,25.6,86,94,1.47,SB,1745435810
576,moyale,3.5167,39.0584,20.48,73,64,2.88,KE,1745435811
577,vorkuta,67.5,64.0,-6.8,94,100,4.04,RU,1745435714
578,woolgoolga,-30.1106,153.2007,20.93,62,78,7.14,AU,1745435813
579,opuwo,-18.0607,13.84,23.54,35,0,2.59,NA,1745435814
580,zheleznogorsk-ilimskiy,56.5768,104.1217,-2.51,76,100,2.64,RU,1745435815
581,akureyri,65.6835,-18.0878,4.96,65,0,5.14,IS,1745435817
582,niquero,20.0431,-77.5828,28.86,51,0,5.4,CU,1745435818
583,kilju,40.9642,129.3278,7.57,99,100,1.12,KP,1745435521
584,magnolia,33.2671,-93.2393,23.73,82,100,1.5,US,1745435820
585,tongliao,43.6125,122.2653,7.38,31,5,8.05,CN,1745435821
586,richmond,37.5538,-77.4603,26.71,34,40,4.63,US,1745435700
587,galesong,-5.3166,119.3661,25.13,85,94,1.44,ID,1745435823
588,santa ana de yacuma,-13.75,-65.4333,29.97,70,75,2.57,BO,1745435825
589,tyukhtet,56.5389,89.3011,0.2,72,100,5.75,RU,1745435826
590,jonquiere,48.4165,-71.2488,7.06,73,100,4.44,CA,1745435721
591,vernon,50.2581,-119.2691,16.53,34,10,2.06,CA,1745435828
592,eufaula,31.8913,-85.1455,30.53,40,40,2.57,US,1745435829
593,ilhabela,-23.7781,-45.3581,23.71,74,82,2.26,BR,1745435830
594,fisterra,42.9049,-9.2629,15.01,90,7,6.46,ES,1745435833
595,kruisfontein,-34.0033,24.7314,15.88,95,100,2.4,ZA,1745435834
596,zunyi,27.6867,106.9072,14.77,95,100,0.72,CN,1745435835
597,mafinga,-7.25,35.0667,21.26,67,5,2.68,TZ,1745435836
598,ghat,24.9647,10.1728,26.84,13,55,3.49,LY,1745435837
599,midvagur,62.0511,-7.1939,7.46,93,100,5.14,FO,1745435838
600,hami,42.8,93.45,17.85,21,8,5.72,CN,1745435840
601,pyt-yakh,60.7499,72.8582,-7.31,94,15,1.88,RU,1745435841
602,bayanhongor,46.7167,100.1167,-0.85,41,12,1.19,MN,1745435842
603,zanjan,36.6736,48.4787,16.79,44,0,8.28,IR,1745435843
604,redencao,-4.2258,-38.7306,26.63,79,93,1.39,BR,1745435610
605,quartu sant'elena,39.2419,9.1839,16.69,70,0,5.14,IT,1745435845
